{"type":"FeatureCollection","features":[{"type":"Feature","properties":{"title":"San Martín 73, Santiago de Chile, Región Metropolitana de Santiago 8320000, Chile","description":"celular","fill":"#ae3737"},"geometry":{"coordinates":[-70.65742927116398,-33.44336809505736],"type":"Point"}},{"type":"Feature","properties":{"title":"Bandera 46, Santiago de Chile, Región Metropolitana de Santiago 8320000, Chile","description":"celular","fill":"#ae3737"},"geometry":{"coordinates":[-70.65180845767257,-33.443230952488314],"type":"Point"}},{"type":"Feature","properties":{"title":"Avenida Libertador Bernardo O'higgins 651, Santiago de Chile, Región Metropolitana de Santiago 8320000, Chile","description":"celular","fill":"#ae3737"},"geometry":{"coordinates":[-70.64574010317995,-33.44198286304815],"type":"Point"}},{"type":"Feature","properties":{"title":"Matucana 464, Estación Central, Región Metropolitana de Santiago 9160000, Chile","description":"celular","fill":"#ae3737"},"geometry":{"coordinates":[-70.68000253871341,-33.44220334704274],"type":"Point"}},{"type":"Feature","properties":{"title":"San Pablo 3358, Santiago de Chile, Región Metropolitana de Santiago 8320000, Chile","description":"celular","fill":"#ae3737"},"geometry":{"coordinates":[-70.6815231018521,-33.43605444754484],"type":"Point"}}]}