{"type":"FeatureCollection","features":[{"type":"Feature","properties":{"title":"San Pablo 1825, Santiago de Chile, Región Metropolitana de Santiago 8320000, Chile","description":"envase de vidrio","fill":"#2de193"},"geometry":{"coordinates":[-70.66327023860067,-33.4347034966732],"type":"Point"}},{"type":"Feature","properties":{"title":"Avenida Ricardo Cumming 662, Santiago de Chile, Región Metropolitana de Santiago 8320000, Chile","description":"envase de vidrio","fill":"#2de193"},"geometry":{"coordinates":[-70.66874427015807,-33.43719038596896],"type":"Point"}},{"type":"Feature","properties":{"title":"Almirante Barroso 452, Santiago de Chile, Región Metropolitana de Santiago 8320000, Chile","description":"envase de vidrio","fill":"#2de193"},"geometry":{"coordinates":[-70.66237615625492,-33.43846855862272],"type":"Point"}},{"type":"Feature","properties":{"title":"Maturana 399, Santiago de Chile, Región Metropolitana de Santiago 8320000, Chile","description":"envase de vidrio","fill":"#2de193"},"geometry":{"coordinates":[-70.66672380023108,-33.43998320074001],"type":"Point"}},{"type":"Feature","properties":{"title":"Cumming 221, Santiago de Chile, Región Metropolitana de Santiago 8320000, Chile","description":"envase de vidrio","fill":"#2de193"},"geometry":{"coordinates":[-70.6678169841436,-33.44200522958979],"type":"Point"}},{"type":"Feature","properties":{"title":"Moneda 2300, Santiago de Chile, Región Metropolitana de Santiago 8320000, Chile","description":"envase de vidrio","fill":"#2de193"},"geometry":{"coordinates":[-70.66810646062567,-33.44390797195125],"type":"Point"}},{"type":"Feature","properties":{"title":"General Mackenna 1411, Santiago de Chile, Región Metropolitana de Santiago 8320000, Chile","description":"envase de vidrio","fill":"#2de193"},"geometry":{"coordinates":[-70.6576584418022,-33.433193596977],"type":"Point"}},{"type":"Feature","properties":{"title":"Teatinos 826, Santiago de Chile, Región Metropolitana de Santiago 8320000, Chile","description":"envase de vidrio","fill":"#2de193"},"geometry":{"coordinates":[-70.65609203173798,-33.43405760762547],"type":"Point"}},{"type":"Feature","properties":{"title":"Avenida Ricardo Cumming 1275, Santiago de Chile, Región Metropolitana de Santiago 8320000, Chile","description":"envase de vidrio","fill":"#2de193"},"geometry":{"coordinates":[-70.66918472883687,-33.43035052309138],"type":"Point"}},{"type":"Feature","properties":{"title":"Cautin 1380, Santiago de Chile, Región Metropolitana de Santiago 8320000, Chile","description":"envase de vidrio","fill":"#2de193"},"geometry":{"coordinates":[-70.67041443187736,-33.429778445753854],"type":"Point"}}]}